[
  {
    "name": "고려대학교안암병원",
    "address": "서울특별시 성북구 고려대로 73",
    "hos_lat": 37.5868,
    "hos_lng": 127.0276,
    "phone": "02-1577-0083",
    "is_emergency": false,
    "nightcare": false,
    "start_hour": "08:30",
    "end_hour": "17:30",
    "image": "",
    "specialties": ["내과", "이비인후과"]
  },
  {
    "name": "성심백세안과의원",
    "address": "서울특별시 성북구 동소문로 181, 성북성심빌딩 4층 (돈암동)",
    "hos_lat": 37.5983885994911,
    "hos_lng": 127.021443949614,
    "phone": "02-953-0110",
    "is_emergency": false,
    "nightcare": false,
    "start_hour": "10:00",
    "end_hour": "20:00",
    "image": "",
    "specialties": ["내과", "이비인후과"]
  },
  {
    "name": "성신의원",
    "address": "서울특별시 성북구 숭인로 16, (길음동)",
    "hos_lat": 37.611782610011,
    "hos_lng": 127.023879571821,
    "phone": "02-983-6063",
    "is_emergency": false,
    "nightcare": false,
    "start_hour": "09:30",
    "end_hour": "18:30",
    "image": "",
    "specialties": "내과"
  },
  {
    "name": "아이사랑소아청소년과의원",
    "address": "서울특별시 성북구 보국문로 50",
    "hos_lat": 37.6088639482975,
    "hos_lng": 127.01008574376,
    "phone": "02-911-7501",
    "is_emergency": false,
    "nightcare": false,
    "start_hour": "09:00",
    "end_hour": "18:00",
    "image": "",
    "specialties": "내과"
  },
  {
    "name": "아미치과의원",
    "address": "서울특별시 성북구 오패산로 49, 302호 (하월곡동)",
    "hos_lat": 37.6063959895976,
    "hos_lng": 127.036436084577,
    "phone": "02-911-0075",
    "is_emergency": false,
    "nightcare": false,
    "start_hour": "09:00",
    "end_hour": "18:00",
    "image": "",
    "specialties": "내과"
  },
  {
    "name": "연세효상의원",
    "address": "서울특별시 성북구 동소문로 36, 2층 (동소문동3가, 소석빌딩)",
    "hos_lat": 37.5899434086,
    "hos_lng": 127.010095192,
    "phone": "02-742-8288",
    "is_emergency": false,
    "nightcare": false,
    "start_hour": "09:00",
    "end_hour": "20:00",
    "image": "",
    "specialties": "내과"
  },
  {
    "name": "연세삼성산부인과의원",
    "address": "서울특별시 성북구 성북로 3 (성북동1가, 이금희산부인과)",
    "hos_lat": 37.58863986627003,
    "hos_lng": 127.00560215511624,
    "phone": "02-762-2081",
    "is_emergency": false,
    "nightcare": false,
    "start_hour": "10:00",
    "end_hour": "18:30",
    "image": "",
    "specialties": "내과"
  },
  {
    "name": "고운숨결내과의원",
    "address": "서울특별시 성북구 고려대로13길 8, 3,4층 (안암동2가)",
    "hos_lat": 37.5869966613958,
    "hos_lng": 127.023677137625,
    "phone": "02-925-9696",
    "is_emergency": false,
    "nightcare": false,
    "start_hour": "08:00",
    "end_hour": "19:00",
    "image": "",
    "specialties": "내과"
  },
  {
    "name": "열린소아청소년과의원",
    "address": "서울특별시 성북구 정릉로 306, 1층 (정릉동)",
    "hos_lat": 37.602709190757345,
    "hos_lng": 127.01715660480073,
    "phone": "02-919-8899",
    "is_emergency": false,
    "nightcare": false,
    "start_hour": "09:00",
    "end_hour": "18:00",
    "image": "",
    "specialties": "내과"
  },
  {
    "name": "강북삼성의원",
    "address": "서울특별시 성북구 화랑로40길 54, 지상3,4층 (석관동, 영원빌딩)",
    "hos_lat": 37.613453428334,
    "hos_lng": 127.064484472177,
    "phone": "02-965-6900",
    "is_emergency": false,
    "nightcare": false,
    "start_hour": "09:00",
    "end_hour": "18:00",
    "image": "",
    "specialties": "내과"
  },
  {
    "name": "우성연합의원",
    "address": "서울특별시 성북구 돌곶이로 71, 1,2,3층 (석관동)",
    "hos_lat": 37.6098455356344,
    "hos_lng": 127.057824865401,
    "phone": "02-963-8275",
    "is_emergency": false,
    "nightcare": false,
    "start_hour": "08:00",
    "end_hour": "18:00",
    "image": "",
    "specialties": "내과"
  },
  {
    "name": "365봄이비인후과의원",
    "address": "서울특별시 성북구 길음로 33, A동상가동 지하1층 1호,2-1호 (길음동, 길음뉴타운8단지아파트)",
    "hos_lat": 37.6050832927232,
    "hos_lng": 127.022078590713,
    "phone": "02-943-9119",
    "is_emergency": false,
    "nightcare": false,
    "start_hour": "09:00",
    "end_hour": "19:30",
    "image": "",
    "specialties": "내과"
  },
  {
    "name": "고운숨결내과의원",
    "address": "서울특별시 성북구 고려대로13길 8, 3,4층 (안암동2가)",
    "hos_lat": 37.5869966613958,
    "hos_lng": 127.023677137625,
    "phone": "02-925-9696",
    "is_emergency": false,
    "nightcare": false,
    "start_hour": "08:00",
    "end_hour": "19:00",
    "image": "",
    "specialties": ["내과", "이비인후과", "소아과"]
  },
  {
    "name": "안암위드치과의원",
    "address": "서울특별시 성북구 안암로 75, 2층 (안암동5가)",
    "hos_lat": 37.5832512305,
    "hos_lng": 127.0293092116,
    "phone": "02-925-2875",
    "is_emergency": false,
    "nightcare": false,
    "start_hour": "09:30",
    "end_hour": "21:00",
    "image": "",
    "specialties": ["치과", "이비인후과", "소아과"]
  },
  {
    "name": "에스제이여성의원",
    "address": "서울특별시 강남구 학동로 342  (논현동)",
    "hos_lat": 37.51674873784129,
    "hos_lng": 127.04085812431188,
    "phone": "02-3014-9314",
    "is_emergency": false,
    "nightcare": false,
    "start_hour": "09:00",
    "end_hour": "19:30",
    "image": "",
    "specialties": ["산부인과", "비뇨의학과"]
  },
  {
    "name": "경희지안한의원",
    "address": "서울특별시 양천구 목동중앙남로11길 16, 2층 (목동)",
    "hos_lat": 37.53936356795,
    "hos_lng": 126.865065496353,
    "phone": "02-2651-1275",
    "is_emergency": false,
    "nightcare": false,
    "start_hour": "09:00",
    "end_hour": "19:00",
    "image": "",
    "specialties": ""
  },
  {
    "name": "연세J라인치과의원",
    "address": "서울특별시 광진구 능동로 123, 2층 (화양동)",
    "hos_lat": 37.5420289618,
    "hos_lng": 127.071313588,
    "phone": "02-2038-8275",
    "is_emergency": false,
    "nightcare": false,
    "start_hour": "10:00",
    "end_hour": "21:00",
    "image": "",
    "specialties": ""
  },
  {
    "name": "연세리더스의원",
    "address": "서울특별시 서대문구 통일로 440, 2층 (홍제동)",
    "hos_lat": 37.58835613201678,
    "hos_lng": 126.94508676600354,
    "phone": "02-394-2007",
    "is_emergency": false,
    "nightcare": true,
    "start_hour": "08:00",
    "end_hour": "22:00",
    "image": "",
    "specialties": ""
  },
  {
    "name": "강석경소아과의원",
    "address": "서울특별시 은평구 불광로 54 (불광동)",
    "hos_lat": 37.6118185632412,
    "hos_lng": 126.931481078648,
    "phone": "02-389-0969",
    "is_emergency": false,
    "nightcare": false,
    "start_hour": "09:50",
    "end_hour": "18:00",
    "image": "",
    "specialties": ""
  },
  {
    "name": "경희미르애한의원",
    "address": "서울특별시 관악구 남부순환로 1942, 302호 (봉천동, 대영빌딩)",
    "hos_lat": 37.476394357840874,
    "hos_lng": 126.96451007586828,
    "phone": "02-882-2060",
    "is_emergency": false,
    "nightcare": false,
    "start_hour": "09:00",
    "end_hour": "20:00",
    "image": "",
    "specialties": ""
  },
  {
    "name": "경희길한의원",
    "address": "서울특별시 구로구 경인로47길 107, 204호 (고척동)",
    "hos_lat": 37.5034016554,
    "hos_lng": 126.8636258579,
    "phone": "02-2615-7975",
    "is_emergency": false,
    "nightcare": false,
    "start_hour": "09:00",
    "end_hour": "19:00",
    "image": "",
    "specialties": ""
  },
  {
    "name": "(스카이메디)연세건강증진내과의원",
    "address": "서울특별시 송파구 송파대로 371, 2층,3층,4층 (석촌동)",
    "hos_lat": 37.5007800420051,
    "hos_lng": 127.110750931193,
    "phone": "02-418-9999",
    "is_emergency": false,
    "nightcare": false,
    "start_hour": "08:30",
    "end_hour": "19:00",
    "image": "",
    "specialties": ""
  },
  {
    "name": "365강서수요양병원",
    "address": "서울특별시 강서구 양천로 35, 1~6층 (방화동)",
    "hos_lat": 37.5729712404467,
    "hos_lng": 126.807691849796,
    "phone": "02-2663-0075",
    "is_emergency": false,
    "nightcare": false,
    "start_hour": "09:00",
    "end_hour": "18:00",
    "image": "",
    "specialties": ""
  },
  {
    "name": "강남동일한의원",
    "address": "서울특별시 강남구 봉은사로 471, 401,402호 (삼성동)",
    "hos_lat": 37.51272798702212,
    "hos_lng": 127.05123829506674,
    "phone": "02-556-6028",
    "is_emergency": false,
    "nightcare": false,
    "start_hour": "09:30",
    "end_hour": "19:00",
    "image": "",
    "specialties": ""
  },
  {
    "name": "경희지음한의원",
    "address": "서울특별시 송파구 법원로 128, 문정에스케이브이원지엘메트로시티 B동 314호 (문정동)",
    "hos_lat": 37.4868314347245,
    "hos_lng": 127.120453991896,
    "phone": "02-3432-7575",
    "is_emergency": false,
    "nightcare": false,
    "start_hour": "09:30",
    "end_hour": "20:00",
    "image": "",
    "specialties": ""
  },
  {
    "name": "에어리어88성형외과의원",
    "address": "서울특별시 강남구 언주로 874, 쌍봉빌딩 5층 (신사동)",
    "hos_lat": 37.5285882156,
    "hos_lng": 127.034134418,
    "phone": "02-511-7000",
    "is_emergency": false,
    "nightcare": false,
    "start_hour": "09:30",
    "end_hour": "21:00",
    "image": "",
    "specialties": ""
  },
  {
    "name": "강남드림내과의원",
    "address": "서울특별시 강남구 자곡로 120, 세곡드림프라자 403, 404, 405호 (자곡동)",
    "hos_lat": 37.4721456267663,
    "hos_lng": 127.096502429368,
    "phone": "02-459-9777",
    "is_emergency": false,
    "nightcare": false,
    "start_hour": "08:30",
    "end_hour": "18:00",
    "image": "",
    "specialties": ""
  },
  {
    "name": "연세밝은아이치과의원",
    "address": "서울특별시 광진구 자양로 87, 2층 (자양동)",
    "hos_lat": 37.5356526197,
    "hos_lng": 127.0836220446,
    "phone": "02-444-1275",
    "is_emergency": false,
    "nightcare": false,
    "start_hour": "09:30",
    "end_hour": "18:30",
    "image": "",
    "specialties": ""
  },
  {
    "name": "경희진심한의원",
    "address": "서울특별시 성북구 종암로 128, 1층 (종암동)",
    "hos_lat": 37.6014859854342,
    "hos_lng": 127.033595365877,
    "phone": "02-909-0304",
    "is_emergency": false,
    "nightcare": false,
    "start_hour": "09:00",
    "end_hour": "20:30",
    "image": "",
    "specialties": ""
  },
  {
    "name": "고덕바른속내과의원",
    "address": "서울특별시 강동구 고덕로 262, 고덕역 효성해링턴 타워 더퍼스트 203~208호 (명일동)",
    "hos_lat": 37.5546676606413,
    "hos_lng": 127.154622234195,
    "phone": "02-3427-1500",
    "is_emergency": false,
    "nightcare": false,
    "start_hour": "08:30",
    "end_hour": "18:00",
    "image": "",
    "specialties": ""
  },
  {
    "name": "경희진심한의원",
    "address": "서울특별시 송파구 양산로 12 세신훼밀리상가 2층 201호 (거여동)",
    "hos_lat": 37.489911262721,
    "hos_lng": 127.143590440057,
    "phone": "02-402-7790",
    "is_emergency": false,
    "nightcare": false,
    "start_hour": "09:00",
    "end_hour": "20:00",
    "image": "",
    "specialties": ""
  },
  {
    "name": "경이비인후과의원",
    "address": "서울특별시 송파구 충민로2길 24 (장지동)",
    "hos_lat": 37.47764625761422,
    "hos_lng": 127.12728398593956,
    "phone": "02-416-0111",
    "is_emergency": false,
    "nightcare": false,
    "start_hour": "09:00",
    "end_hour": "18:30",
    "image": "",
    "specialties": ""
  },
  {
    "name": "경희진평한의원",
    "address": "서울특별시 강남구 테헤란로 333, 지하1층 (역삼동)",
    "hos_lat": 37.5046966146085,
    "hos_lng": 127.048013395254,
    "phone": "02-562-6600",
    "is_emergency": false,
    "nightcare": false,
    "start_hour": "10:00",
    "end_hour": "20:00",
    "image": "",
    "specialties": ""
  },
  {
    "name": "고덕서울오케이치과의원",
    "address": "서울특별시 강동구 고덕로 353, 고덕그라시움아파트(상가1동) 310-314호 (고덕동)",
    "hos_lat": 37.557135101795,
    "hos_lng": 127.164510295845,
    "phone": "02-426-0028",
    "is_emergency": false,
    "nightcare": false,
    "start_hour": "10:00",
    "end_hour": "21:00",
    "image": "",
    "specialties": ""
  },
  {
    "name": "강남연세빛안과의원",
    "address": "서울특별시 서초구 강남대로 373, 홍우빌딩 3층 (서초동)",
    "hos_lat": 37.4959829346636,
    "hos_lng": 127.028010119934,
    "phone": "02-582-0077",
    "is_emergency": false,
    "nightcare": false,
    "start_hour": "09:00",
    "end_hour": "18:00",
    "image": "",
    "specialties": ""
  },
  {
    "name": "경희미르애한의원",
    "address": "서울특별시 중랑구 동일로 887, 302호 (묵동, 삼삼메디컬빌딩)",
    "hos_lat": 37.6095058434,
    "hos_lng": 127.077638713,
    "phone": "02-972-8575",
    "is_emergency": false,
    "nightcare": false,
    "start_hour": "09:30",
    "end_hour": "20:00",
    "image": "",
    "specialties": ""
  },
  {
    "name": "경인경희한의원",
    "address": "서울특별시 구로구 고척로6길 58-1, 4층 (오류동)",
    "hos_lat": 37.4960596566,
    "hos_lng": 126.8428318306,
    "phone": "02-2060-1075",
    "is_emergency": false,
    "nightcare": false,
    "start_hour": "09:00",
    "end_hour": "19:00",
    "image": "",
    "specialties": ""
  },
  {
    "name": "양창순정신건강의학과의원",
    "address": "서울특별시 중구 소공로 35, 310호 (회현동1가, 남산 롯데캐슬)",
    "hos_lat": 37.5582247092319,
    "hos_lng": 126.981744459746,
    "phone": "02-517-8202",
    "is_emergency": false,
    "nightcare": false,
    "start_hour": "10:00",
    "end_hour": "18:00",
    "image": "",
    "specialties": ""
  },
  {
    "name": "아미치과의원",
    "address": "서울특별시 성북구 오패산로 49, 302호 (하월곡동)",
    "hos_lat": 37.6063959895976,
    "hos_lng": 127.036436084577,
    "phone": "02-911-0075",
    "is_emergency": false,
    "nightcare": false,
    "start_hour": "09:00",
    "end_hour": "18:00",
    "image": "",
    "specialties": ""
  },
  {
    "name": "가산곧바로의원",
    "address": "서울특별시 금천구 가산디지털1로 171, 가산 에스케이 브이원 센터 208,218,219호 (가산동)",
    "hos_lat": 37.4808318534376,
    "hos_lng": 126.880662051163,
    "phone": "0262448585",
    "is_emergency": false,
    "nightcare": false,
    "start_hour": "10:00",
    "end_hour": "19:30",
    "image": "",
    "specialties": ""
  },
  {
    "name": "에스피부과의원",
    "address": "서울특별시 강남구 테헤란로 514, 9층 (대치동)",
    "hos_lat": 37.507431839592904,
    "hos_lng": 127.05974092024044,
    "phone": "02-539-1146",
    "is_emergency": false,
    "nightcare": false,
    "start_hour": "10:00",
    "end_hour": "19:30",
    "image": "",
    "specialties": ""
  },
  {
    "name": "엘지에너지솔루션부속의원",
    "address": "서울특별시 영등포구 여의대로 108, 파크원 2층 (여의도동)",
    "hos_lat": 37.52668218388083,
    "hos_lng": 126.9271556698744,
    "phone": "02-2118-0018",
    "is_emergency": false,
    "nightcare": false,
    "start_hour": "08:30",
    "end_hour": "17:30",
    "image": "",
    "specialties": ""
  },
  {
    "name": "에쓰엡치과의원",
    "address": "서울특별시 강남구 강남대로 390, 13층 (역삼동, 미진프라자)",
    "hos_lat": 37.4978402234,
    "hos_lng": 127.0285791857,
    "phone": "02-508-0028",
    "is_emergency": false,
    "nightcare": false,
    "start_hour": "10:00",
    "end_hour": "21:00",
    "image": "",
    "specialties": ""
  },
  {
    "name": "강석일한의원",
    "address": "서울특별시 강남구 봉은사로 326, 1층 (역삼동, 남전빌딩)",
    "hos_lat": 37.5096482466672,
    "hos_lng": 127.042668888604,
    "phone": "02-3453-9070",
    "is_emergency": false,
    "nightcare": false,
    "start_hour": "10:00",
    "end_hour": "21:00",
    "image": "",
    "specialties": ""
  },
  {
    "name": "강남연세산부인과의원",
    "address": "서울특별시 강남구 논현로 507  (역삼동)",
    "hos_lat": 37.501579124343905,
    "hos_lng": 127.03615777458234,
    "phone": "02-555-3453",
    "is_emergency": false,
    "nightcare": false,
    "start_hour": "10:00",
    "end_hour": "18:30",
    "image": "",
    "specialties": ""
  },
  {
    "name": "강성원치과의원",
    "address": "서울특별시 강남구 학동로 503, 202호 (청담동)",
    "hos_lat": 37.519180177066,
    "hos_lng": 127.050790458655,
    "phone": "02-545-2546",
    "is_emergency": false,
    "nightcare": false,
    "start_hour": "10:30",
    "end_hour": "18:00",
    "image": "",
    "specialties": ""
  },
  {
    "name": "에이아이의원",
    "address": "서울특별시 동작구 동작대로 137, JH타워 4층 (사당동)",
    "hos_lat": 37.4889367516705,
    "hos_lng": 126.98198069619659,
    "phone": "02-534-8501",
    "is_emergency": false,
    "nightcare": false,
    "start_hour": "10:00",
    "end_hour": "18:00",
    "image": "",
    "specialties": ""
  },
  {
    "name": "엘림치과의원",
    "address": "서울특별시 강동구 올림픽로 667, 304호, 305호, 306호 (천호동, 대동피렌체리버)",
    "hos_lat": 37.541173854063345,
    "hos_lng": 127.12396340835926,
    "phone": "02-474-7522",
    "is_emergency": false,
    "nightcare": false,
    "start_hour": "09:30",
    "end_hour": "18:30",
    "image": "",
    "specialties": ""
  },
  {
    "name": "휘성형외과의원",
    "address": "서울특별시 강남구 논현로 841, 제이비 미소 빌딩 3층 (신사동)",
    "hos_lat": 37.5239684663137,
    "hos_lng": 127.027758806248,
    "phone": "02-542-4009",
    "is_emergency": false,
    "nightcare": false,
    "start_hour": "09:00",
    "end_hour": "21:00",
    "image": "",
    "specialties": ""
  },
  {
    "name": "연세성모내과의원",
    "address": "서울특별시 강남구 선릉로 340, 대치 EM 프라자 5층 505호 (대치동)",
    "hos_lat": 37.5002229368483,
    "hos_lng": 127.051448351881,
    "phone": "02-564-8575",
    "is_emergency": false,
    "nightcare": false,
    "start_hour": "09:00",
    "end_hour": "18:00",
    "image": "",
    "specialties": ""
  },
  {
    "name": "연세이원유치과의원",
    "address": "서울특별시 강남구 논현로176길 24, 2층 (신사동)",
    "hos_lat": 37.52734042446182,
    "hos_lng": 127.03048877248689,
    "phone": "02-6253-2800",
    "is_emergency": false,
    "nightcare": false,
    "start_hour": "09:00",
    "end_hour": "18:30",
    "image": "",
    "specialties": ""
  },
  {
    "name": "강성호내과의원",
    "address": "서울특별시 관악구 관악로 236 (봉천동)",
    "hos_lat": 37.4853989326808,
    "hos_lng": 126.956379535206,
    "phone": "02-886-8006",
    "is_emergency": false,
    "nightcare": false,
    "start_hour": "09:20",
    "end_hour": "18:20",
    "image": "",
    "specialties": ""
  },
  {
    "name": "연세효상의원",
    "address": "서울특별시 성북구 동소문로 36, 2층 (동소문동3가, 소석빌딩)",
    "hos_lat": 37.5899434086,
    "hos_lng": 127.010095192,
    "phone": "02-742-8288",
    "is_emergency": false,
    "nightcare": false,
    "start_hour": "09:00",
    "end_hour": "20:00",
    "image": "",
    "specialties": ""
  },
  {
    "name": "강남라렌의원",
    "address": "서울특별시 강남구 강남대로 378, 준빌딩 10층 (역삼동)",
    "hos_lat": 37.4966553866955,
    "hos_lng": 127.02863346709,
    "phone": "02-894-7781",
    "is_emergency": false,
    "nightcare": false,
    "start_hour": "08:30",
    "end_hour": "20:30",
    "image": "",
    "specialties": ""
  },
  {
    "name": "연세흉부외과의원",
    "address": "서울특별시 동작구 동작대로 25, 6층 (사당동)",
    "hos_lat": 37.47874444398077,
    "hos_lng": 126.98134549907533,
    "phone": "02-523-7007",
    "is_emergency": false,
    "nightcare": false,
    "start_hour": "09:00",
    "end_hour": "17:30",
    "image": "",
    "specialties": ""
  },
  {
    "name": "경희영신한의원",
    "address": "서울특별시 강남구 개포로 506, 청우빌딩 204호 (개포동)",
    "hos_lat": 37.4891418305896,
    "hos_lng": 127.067521234936,
    "phone": "02-3411-1075",
    "is_emergency": false,
    "nightcare": false,
    "start_hour": "10:00",
    "end_hour": "20:00",
    "image": "",
    "specialties": ""
  },
  {
    "name": "연세컬럼비아치과의원",
    "address": "서울특별시 영등포구 은행로 37",
    "hos_lat": 37.52938611163686,
    "hos_lng": 126.9226090427013,
    "phone": "02-369-7111",
    "is_emergency": false,
    "nightcare": false,
    "start_hour": "09:30",
    "end_hour": "18:30",
    "image": "",
    "specialties": ""
  },
  {
    "name": "강성호치과의원",
    "address": "서울특별시 양천구 중앙로 276",
    "hos_lat": 37.5208361584987,
    "hos_lng": 126.85288429171,
    "phone": "02-2645-1413",
    "is_emergency": false,
    "nightcare": false,
    "start_hour": "09:20",
    "end_hour": "17:00",
    "image": "",
    "specialties": ""
  },
  {
    "name": "연세플러스치과의원",
    "address": "서울특별시 관악구 남부순환로 1956, 2층 (봉천동)",
    "hos_lat": 37.47585899187234,
    "hos_lng": 126.96599604102792,
    "phone": "02-875-6739",
    "is_emergency": false,
    "nightcare": false,
    "start_hour": "09:00",
    "end_hour": "18:00",
    "image": "",
    "specialties": ""
  },
  {
    "name": "경희미르애한의원",
    "address": "서울특별시 광진구 자양로 46, 2층 201호 (자양동, 오띠모빌딩)",
    "hos_lat": 37.53219110326876,
    "hos_lng": 127.0859533516877,
    "phone": "02-446-1075",
    "is_emergency": false,
    "nightcare": false,
    "start_hour": "09:30",
    "end_hour": "20:00",
    "image": "",
    "specialties": ""
  },
  {
    "name": "연세51치과의원",
    "address": "서울특별시 도봉구 덕릉로 259, 지하1층 (창동)",
    "hos_lat": 37.64072767691686,
    "hos_lng": 127.03971935901701,
    "phone": "02-565-7528",
    "is_emergency": false,
    "nightcare": false,
    "start_hour": "09:30",
    "end_hour": "20:00",
    "image": "",
    "specialties": ""
  },
  {
    "name": "경희참좋은한의원",
    "address": "서울특별시 강서구 양천로 628, 3층 (염창동, 우건빌딩)",
    "hos_lat": 37.5539157220433,
    "hos_lng": 126.867326788081,
    "phone": "02-6925-5557",
    "is_emergency": false,
    "nightcare": false,
    "start_hour": "09:00",
    "end_hour": "19:00",
    "image": "",
    "specialties": ""
  },
  {
    "name": "연세광안과의원",
    "address": "서울특별시 마포구 신촌로 270, 8층 (아현동, 수창빌딩)",
    "hos_lat": 37.5571213001608,
    "hos_lng": 126.955710653541,
    "phone": "02-312-2020",
    "is_emergency": false,
    "nightcare": false,
    "start_hour": "09:00",
    "end_hour": "21:00",
    "image": "",
    "specialties": ""
  },
  {
    "name": "연세고운피부과의원",
    "address": "서울특별시 관악구 난곡로 197, 3층 (신림동)",
    "hos_lat": 37.4725400701048,
    "hos_lng": 126.918942273894,
    "phone": "02-837-2300",
    "is_emergency": false,
    "nightcare": false,
    "start_hour": "09:30",
    "end_hour": "20:30",
    "image": "",
    "specialties": ""
  },
  {
    "name": "경희김영환한의원",
    "address": "서울특별시 노원구 석계로9길 21 (월계동)",
    "hos_lat": 37.6170658893177,
    "hos_lng": 127.063080026907,
    "phone": "02-2246-1075",
    "is_emergency": false,
    "nightcare": false,
    "start_hour": "09:00",
    "end_hour": "19:00",
    "image": "",
    "specialties": ""
  },
  {
    "name": "연세올림픽치과의원",
    "address": "서울특별시 송파구 백제고분로 283 (석촌동)",
    "hos_lat": 37.5027477531,
    "hos_lng": 127.0979979973,
    "phone": "02-419-3080",
    "is_emergency": false,
    "nightcare": false,
    "start_hour": "09:30",
    "end_hour": "17:30",
    "image": "",
    "specialties": ""
  },
  {
    "name": "안희권내과의원",
    "address": "서울특별시 서대문구 통일로 358 (홍제동, 안산빌딩)",
    "hos_lat": 37.5823188782038,
    "hos_lng": 126.950663254684,
    "phone": "02-738-5833",
    "is_emergency": false,
    "nightcare": false,
    "start_hour": "09:00",
    "end_hour": "18:30",
    "image": "",
    "specialties": ""
  },
  {
    "name": "경희참한의원",
    "address": "서울특별시 송파구 오금로 414, 명문빌딩동 201호 (가락동)",
    "hos_lat": 37.4972078608831,
    "hos_lng": 127.13591630406,
    "phone": "02-409-7582",
    "is_emergency": false,
    "nightcare": false,
    "start_hour": "09:00",
    "end_hour": "18:30",
    "image": "",
    "specialties": ""
  },
  {
    "name": "압구정안과의원",
    "address": "서울특별시 서초구 강남대로 597, 진미선빌딩 3,4층 (잠원동)",
    "hos_lat": 37.5150359817667,
    "hos_lng": 127.019317658902,
    "phone": "02-3416-1001",
    "is_emergency": false,
    "nightcare": false,
    "start_hour": "09:30",
    "end_hour": "19:30",
    "image": "",
    "specialties": ""
  },
  {
    "name": "고덕서울치과의원",
    "address": "서울특별시 강동구 고덕로 256, 5층 4호 (명일동, 명성프라자)",
    "hos_lat": 37.5546198628524,
    "hos_lng": 127.154105278912,
    "phone": "02-481-3336",
    "is_emergency": false,
    "nightcare": false,
    "start_hour": "09:30",
    "end_hour": "21:00",
    "image": "",
    "specialties": ""
  },
  {
    "name": "연세삼성산부인과의원",
    "address": "서울특별시 성북구 성북로 3 (성북동1가, 이금희산부인과)",
    "hos_lat": 37.58863986627003,
    "hos_lng": 127.00560215511624,
    "phone": "02-762-2081",
    "is_emergency": false,
    "nightcare": false,
    "start_hour": "10:00",
    "end_hour": "18:30",
    "image": "",
    "specialties": ""
  },
  {
    "name": "강소아청소년과의원",
    "address": "서울특별시 도봉구 덕릉로 253 (창동)",
    "hos_lat": 37.6402972948667,
    "hos_lng": 127.039396106053,
    "phone": "02-906-1606",
    "is_emergency": false,
    "nightcare": false,
    "start_hour": "08:30",
    "end_hour": "18:00",
    "image": "",
    "specialties": ""
  }
]
